{
  "places": [
    {
      "id": 2,
      "name": "Al Passetto",
      "city": "Cortina D'Ampezzo",
      "address": "Via Guglielmo Marconi, 8, 32043 Cortina d'Ampezzo BL",
      "lat": "46.539348",
      "lng": "12.137056",
      "typology": ["Ristorante", "Pizzeria"],
      "phone": "",
      "notes": "Cucina tipica",
      "price": "€€€"
    },
    {
      "id": 3,
      "name": "Ciasa Lorenzi",
      "city": "Cortina D'Ampezzo",
      "address": "Via Cantore, 1, 32043 Cortina d'Ampezzo BL",
      "lat": "46.540345",
      "lng": "12.136343",
      "typology": ["Ristorante"],
      "phone": "",
      "notes": "Figo",
      "price": "€€€€€€"
    },
    {
      "id": 4,
      "name": "Il Dopolavoro",
      "city": "Gardolo",
      "address": "Via delle Scuole, 1, 38121 Trento TN",
      "lat": "46.108275",
      "lng": "11.11026",
      "typology": ["Ristorante", "Pizzeria"],
      "phone": "",
      "notes": ""
    },
    {
      "id": 5,
      "name": "4 Stagioni",
      "city": "Lasino",
      "address": "Viale S. Pietro, 7a, 38076 Lasino TN",
      "lat": "46.025019",
      "lng": "10.981321",
      "typology": ["Pizzeria", "Ristorante"],
      "phone": "",
      "notes": ""
    },
    {
      "id": 6,
      "name": "Vecchia Pergine",
      "city": "Pergine",
      "address": "Via Maier Contrada Taliana, 69, 38057 Pergine Valsugana TN",
      "lat": "46.058407",
      "lng": "11.240049",
      "typology": ["Pizzeria", "Ristorante"],
      "phone": "",
      "notes": ""
    },
    {
      "id": 7,
      "name": "Terra Rossa",
      "city": "Pergine",
      "address": "Via Santo Rio, 7, 38057 Susà TN",
      "lat": "46.050937",
      "lng": "11.222419",
      "typology": ["Pizzeria"],
      "phone": "0461-530996",
      "notes": "",
      "price": "€€€"
    },
    {
      "id": 8,
      "name": "Sushiko",
      "city": "Riva del Garda",
      "address": "Via Padova, 5, 38066 Riva del Garda TN",
      "lat": "45.883109",
      "lng": "10.854207",
      "typology": ["Sushi"],
      "phone": "",
      "notes": "",
      "price": "€€€€€"
    },
    {
      "id": 9,
      "name": "Suyoshi",
      "city": "Rovereto",
      "address": "Via del Garda, 44/o, 38068 Rovereto TN",
      "lat": "45.872842",
      "lng": "11.030726",
      "typology": ["Sushi"],
      "phone": "",
      "notes": "",
      "price": "€€€€€"
    },
    {
      "id": 10,
      "name": "Al Convento",
      "city": "Sarche",
      "address": "Via Toblino, 13, 38096 Vallelaghi TN",
      "lat": "46.048163",
      "lng": "10.954036",
      "typology": ["Indiano", "Pizzeria", "Ristorante"],
      "phone": "",
      "notes": ""
    },
    {
      "id": 11,
      "name": "La Vecchia Cantina",
      "city": "Terlago",
      "address": "Via Villa Alta, 14, 38096 Vallelaghi TN",
      "lat": "46.098243",
      "lng": "11.0184",
      "typology": ["⭐️", "Pizzeria", "Ristorante"],
      "phone": "0461-860428",
      "notes": "Prezzi super onesti",
      "price": "€€€"
    },
    {
      "id": 12,
      "name": "Fujiyama",
      "city": "Trento",
      "address": "Corso 3 Novembre 1918, 29, 38122 Trento TN",
      "lat": "46.0614959",
      "lng": "11.1246535",
      "typology": ["⭐️", "Sushi"],
      "phone": "347-2641954",
      "notes": "Migliore",
      "price": "€€€€€"
    },
    {
      "id": 13,
      "name": "Ca dei Gobj",
      "city": "Trento",
      "address": "Via del Simonino, 14, 38122 Trento TN",
      "lat": "46.068535",
      "lng": "11.123725",
      "typology": ["Ristorante"],
      "phone": "",
      "notes": "Cucina tipica"
    },
    {
      "id": 14,
      "name": "La Roccia",
      "city": "Trento",
      "address": "Localita, Via Pianizza, 4, 38123 Villazzano TN",
      "lat": "46.017006",
      "lng": "11.144694",
      "typology": ["Pizzeria", "Ristorante"],
      "phone": "0461-390226",
      "notes": "Bella vista, Anche piatti di pesce, Porzioni di pesce molto abbondanti",
      "price": "€€€"
    },
    {
      "id": 15,
      "name": "Tentazioni",
      "city": "Trento",
      "address": "Via di Stella di Man, 45, 38123 Trento TN",
      "lat": "46.036521",
      "lng": "11.129514",
      "typology": ["Pizzeria", "Ristorante"],
      "phone": "",
      "notes": ""
    },
    {
      "id": 16,
      "name": "Pedavena",
      "city": "Trento",
      "address": "Via Santa Croce, 15, 38122 Trento TN",
      "lat": "46.064708",
      "lng": "11.123408",
      "typology": ["Pizzeria", "Ristorante"],
      "phone": "",
      "notes": "Cucina tipica, Birreria",
      "price": "€€€€"
    },
    {
      "id": 17,
      "name": "Sushiko",
      "city": "Trento",
      "address": "Corso 3 Novembre 1918, 57, 38122 Trento TN",
      "lat": "46.060611",
      "lng": "11.125719",
      "typology": ["Sushi"],
      "phone": "",
      "notes": "",
      "price": "€€€€€"
    },
    {
      "id": 18,
      "name": "La Piadineria",
      "city": "Trento",
      "address": "Viale della Costituzione, 5, 38122 Trento TN",
      "lat": "46.061801",
      "lng": "11.11456",
      "typology": ["Piadine"],
      "phone": "",
      "notes": "",
      "price": "€"
    },
    {
      "id": 19,
      "name": "Capatoast",
      "city": "Trento",
      "address": "Via Santa Croce, 42, 38122 Trento TN",
      "lat": "46.064073",
      "lng": "11.123332",
      "typology": ["Panini"],
      "phone": "",
      "notes": "",
      "price": "€"
    },
    {
      "id": 20,
      "name": "Ravioleria Zhang",
      "city": "Trento",
      "address": "Via Carlo Dordi, 38, 38122 Trento TN",
      "lat": "46.067264",
      "lng": "11.123128",
      "typology": ["⭐️", "Cinese"],
      "phone": "",
      "notes": "Ravioli",
      "price": "€"
    },
    {
      "id": 21,
      "name": "Para Todos",
      "city": "Trento",
      "address": "Via Torre Verde, 62, 38122 Trento TN",
      "lat": "46.071528",
      "lng": "11.124643",
      "typology": ["Messicano"],
      "phone": "",
      "notes": "",
      "price": "€€€"
    },
    {
      "id": 22,
      "name": "Patelli",
      "city": "Trento",
      "address": "Via Dietro le Mura A, 1/5, 38122 Trento TN",
      "lat": "46.06542",
      "lng": "11.12316",
      "typology": ["Ristorante"],
      "phone": "",
      "notes": "",
      "price": "€€€€€"
    },
    {
      "id": 23,
      "name": "Milli Eat&Drink",
      "city": "Trento",
      "address": "Via del Suffragio, 2, 38121 Trento TN",
      "lat": "46.071873",
      "lng": "11.124915",
      "typology": ["Pizzeria", "Ristorante"],
      "phone": "388-3440317",
      "notes": "",
      "price": "€€€"
    },
    {
      "id": 24,
      "name": "Dalla Sora Giovanna",
      "city": "Trento",
      "address": "Via della Roggia Grande, 8, 38122 Trento TN",
      "lat": "46.067405",
      "lng": "11.124386",
      "typology": ["Ristorante"],
      "phone": "",
      "notes": "Piatti romani",
      "price": "€€€"
    },
    {
      "id": 25,
      "name": "Al Maso",
      "city": "Val di Non",
      "address": "Via Sporeggio, 24, 38010 Maso Milano TN",
      "lat": "46.236836",
      "lng": "11.052502",
      "typology": ["Ristorante"],
      "phone": "",
      "notes": "Carne",
      "price": "€€€€€€"
    },
    {
      "id": 26,
      "name": "Panorama",
      "city": "Val di Non",
      "address": "Via Roma, 60, 38012 Taio TN",
      "lat": "46.317167",
      "lng": "11.068741",
      "typology": ["Indiano", "Pizzeria"],
      "phone": "",
      "notes": ""
    },
    {
      "id": 27,
      "name": "Re Teodorico",
      "city": "Verona",
      "address": "Piazzale Castel S. Pietro, 1, 37121 Verona VR",
      "lat": "45.448416",
      "lng": "11.002226",
      "typology": ["Ristorante"],
      "phone": "",
      "notes": "Bella vista",
      "price": "€€€€€€"
    },
    {
      "id": 28,
      "name": "Pizzeria Helmhotel",
      "city": "Versciaco",
      "address": "Bozner Str., 2, 39038 Obervierschach, Autonome Provinz Bozen - Sudtirol",
      "lat": "46.730172",
      "lng": "12.321836",
      "typology": ["Ristorante", "Pizzeria"],
      "phone": "",
      "notes": "Cucina tipica",
      "price": "€€€"
    },
    {
      "id": 29,
      "name": "Pizzeria Camping Cortina",
      "city": "Cortina D'Ampezzo",
      "address": "Via Campo, 2, 32043 Cortina d'Ampezzo BL",
      "lat": "46.521819",
      "lng": "12.1345632",
      "typology": ["Pizzeria"],
      "phone": "0436-867575",
      "notes": "Calzone buono"
    },
    {
      "id": 30,
      "name": "Ni Hao",
      "city": "Trento",
      "address": "Via Giuseppe Grazioli, 68, 38122 Trento TN",
      "lat": "46.0664323",
      "lng": "11.1301177",
      "typology": ["Cinese"],
      "phone": "0461-090887",
      "notes": "",
      "price": "€"
    },
    {
      "id": 31,
      "name": "Restaurant ADLERSTÜBERL",
      "city": "Lienz",
      "address": "Andrä Kranz-Gasse 7, 9900 Lienz, Austria",
      "lat": "46.8295378",
      "lng": "12.7676245",
      "typology": ["Ristorante"],
      "phone": "",
      "notes": "Cucina tipica, Turistico",
      "price": "€€€"
    },
    {
      "id": 32,
      "name": "Mair Fast Food",
      "city": "Trento",
      "address": "Via della Prepositura, 6, 38122 Trento TN",
      "lat": "46.0695826",
      "lng": "11.1182283",
      "typology": ["Fast-Food", "Kebab"],
      "phone": "",
      "notes": "",
      "price": "€"
    },
    {
      "id": 33,
      "name": "Waikiki Poke Trento",
      "city": "Trento",
      "address": "Via Giuseppe Verdi, 19, 38122 Trento TN",
      "lat": "46.0666112",
      "lng": "11.1178943",
      "typology": ["Poké"],
      "phone": "",
      "notes": "",
      "price": "€€"
    },
    {
      "id": 34,
      "name": "da Renzo",
      "city": "Cappella Maggiore",
      "address": "Piazza Vittorio Veneto, 6, 31012 Cappella Maggiore TV",
      "lat": "45.9699709",
      "lng": "12.3614281",
      "typology": ["Ristorante", "Pesce"],
      "phone": "",
      "notes": "Pesce molto buono"
    },
    {
      "id": "35",
      "name": "Mr. Gyros",
      "city": "Innsbruck",
      "address": "Innrain 9, 6020 Innsbruck",
      "lat": "47.2667339",
      "lng": "11.3908857",
      "typology": ["Greco", "Piadine"],
      "phone": "",
      "notes": ""
    },
    {
      "id": "36",
      "name": "Hard Rock Cafe",
      "city": "Innsbruck",
      "address": "Maria-Theresien-Straße 16, 6020 Innsbruck, Austria",
      "lat": "47.2658764",
      "lng": "11.3937837",
      "typology": ["Ristorante", "Americano"],
      "phone": "",
      "notes": "Figo",
      "price": "€€€€"
    },
    {
      "id": "37",
      "name": "Old Wild West",
      "city": "Trento",
      "address": "Piazza delle Donne Lavoratrici, 13, 38121 Trento TN",
      "lat": "46.0601322",
      "lng": "11.1149422",
      "typology": ["Ristorante", "Americano"],
      "phone": "0461-915572",
      "notes": "",
      "price": "€€€"
    },
    {
      "id": "38",
      "name": "Mexico City",
      "city": "Villabassa",
      "address": "Via Rienza, 31, 39039 Villabassa BZ",
      "lat": "46.7390540",
      "lng": "12.1683820",
      "typology": ["Ristorante", "Messicano", "Pizzeria"],
      "phone": "",
      "notes": "",
      "price": "€€€"
    },
    {
      "id": 39,
      "name": "Tetley's",
      "city": "Trento",
      "address": "Via degli Orti, 1, 38122 Trento TN",
      "lat": "46.065742",
      "lng": "11.121244",
      "typology": ["Pizzeria"],
      "phone": "338-3612632",
      "notes": "Pub",
      "price": "€€"
    },
    {
      "id": "40",
      "name": "Ramen House",
      "city": "Trento",
      "address": "Via Carlo Esterle, 8, 38122 Trento TN",
      "lat": "46.0659345",
      "lng": "11.1210780",
      "typology": ["⭐️", "Ramen"],
      "phone": "346-3112740",
      "notes": "",
      "price": "€€€"
    },
    {
      "id": "41",
      "name": "Perbene o Quasi",
      "city": "Trento",
      "address": "Via Giovanni Prati, 4-6, 38122 Trento TN",
      "lat": "46.0658788",
      "lng": "11.1195706",
      "typology": ["Ristorante", "Panini"],
      "phone": "375-7880805",
      "notes": "Hamburger",
      "price": "€€€"
    },
    {
      "id": "42",
      "name": "Uva & Menta",
      "city": "Trento",
      "address": "Via Dietro le Mura A, 35, 38122 Trento TN",
      "lat": "46.0655008",
      "lng": "11.1246474",
      "typology": ["Pizzeria"],
      "phone": "",
      "notes": "Pizze particolari",
      "price": "€€€"
    },
    {
      "id": "43",
      "name": "Sushyamo",
      "city": "Rovereto",
      "address": "Via dell'Abetone, 9, 38068 Rovereto TN",
      "lat": "45.8890493",
      "lng": "11.0335328",
      "typology": ["⭐️", "Sushi"],
      "phone": "0464-975000",
      "notes": "Migliore",
      "price": "€€€€€"
    },
    {
      "id": "44",
      "name": "Officina Gambrinus",
      "city": "Trento",
      "address": "Via Alto Adige, 164, 38121 Trento TN, Italia",
      "lat": "46.1278938",
      "lng": "11.1094114",
      "typology": ["Ristorante", "Panini", "Pizzeria"],
      "phone": "",
      "notes": "Pub con tante birre",
      "price": "€€€€"
    },
    {
      "id": "45",
      "name": "Hotel Schopfenhof",
      "city": "Dobbiaco",
      "address": "Costanosellari, 12, 39034 Dobbiaco BZ, Italia",
      "lat": "46.7347726",
      "lng": "12.2613448",
      "typology": ["Ristorante"],
      "phone": "",
      "notes": "Cotoletta molto buona",
      "price": "€€€"
    },
    {
      "id": "46",
      "name": "Oishy Ramen&sushi",
      "city": "Trento",
      "address": "Via Antonio Rosmini, 18, 38122 Trento TN",
      "lat": "46.0679096",
      "lng": "11.1186296",
      "typology": ["Cinese", "Ramen"],
      "phone": "331-8923388",
      "notes": "",
      "price": "€€"
    },
    {
      "id": "47",
      "name": "Old Wild West",
      "city": "Trento",
      "address": "Via Gemma de Gresti, 6, 38122 Trento TN",
      "lat": "46.0879723",
      "lng": "11.1183625",
      "typology": ["Ristorante", "Americano"],
      "phone": "342-8695665",
      "notes": "",
      "price": "€€€"
    },
    {
      "id": "48",
      "name": "La Terrazza",
      "city": "Trento",
      "address": "Piazzale Europa, 22, 38123 Trento TN",
      "lat": "46.0406051",
      "lng": "11.1329032",
      "typology": ["Indiano"],
      "phone": "0461-390060",
      "notes": "",
      "price": "€€€"
    },
    {
      "id": "48",
      "name": "URBAN R-EVOLUTION PUB",
      "city": "Bergamo",
      "address": "Via Enrico Fermi, 27, 24035 Curno BG",
      "lat": "45.6872220",
      "lng": "9.6220550",
      "typology": ["Ristorante"],
      "phone": "",
      "notes": "Pub",
      "price": "€€€"
    },
    {
      "id": "49",
      "name": "Bayern Drehspieß",
      "city": "München",
      "address": "Tal 14, 80331 München, Germania",
      "lat": "48.1359239",
      "lng": "11.5787162",
      "typology": ["Kebab"],
      "phone": "",
      "notes": "",
      "price": "€"
    },
    {
      "id": "50",
      "name": "Riegele WirtsHaus",
      "city": "Augsburg",
      "address": "Frölichstraße 26, 86150 Augsburg, Germania",
      "lat": "48.3675041",
      "lng": "10.8845953",
      "typology": ["Ristorante"],
      "phone": "",
      "notes": "Cucina tipica, Birreria",
      "price": "€€€"
    },
    {
      "id": "51",
      "name": "QMUH Ulm",
      "city": "Ulm",
      "address": "Lautengasse 4, 89073 Ulm, Germania",
      "lat": "48.3977095",
      "lng": "9.9893789",
      "typology": ["Ristorante"],
      "phone": "",
      "notes": "",
      "price": "€€€€"
    },
    {
      "id": "52",
      "name": "K-Kaiseki Sushi Restaurant",
      "city": "Milano",
      "address": "Via Paolo Sarpi, 5, 20154 Milano MI",
      "lat": "45.4815783",
      "lng": "9.1803355",
      "typology": ["Sushi"],
      "phone": "",
      "notes": "",
      "price": "€€€€€"
    },
    {
      "id": "53",
      "name": "Fradiavolo Pizzeria",
      "city": "Bologna",
      "address": "Via Santo Stefano, 1/B, 40125 Bologna BO",
      "lat": "44.4933723",
      "lng": "11.3468421",
      "typology": ["Pizzeria"],
      "phone": "",
      "notes": "Pizza stile napoletano",
      "price": "€€€"
    },
    {
      "id": "54",
      "name": "Doppio Malto",
      "city": "Trento",
      "address": "Via del Brennero, 148, 38121 Trento TN",
      "lat": "46.0802720",
      "lng": "11.1224544",
      "typology": ["Ristorante", "Americano"],
      "phone": "333-9561554",
      "notes": "",
      "price": "€€€€"
    },
    {
      "id": "55",
      "name": "Pizza e Pizza",
      "city": "Trento",
      "address": "Via S. Bernardino, 24, 38122 Trento TN",
      "lat": "46.0638644",
      "lng": "11.1306056",
      "typology": ["Pizzeria"],
      "phone": "0461-262095",
      "notes": "",
      "price": "€€"
    },
    {
      "id": "56",
      "name": "Orostube",
      "city": "Trento",
      "address": "Via Sommarive, 10, 38123 Povo TN",
      "lat": "46.0647594",
      "lng": "11.1504525",
      "typology": ["Pizzeria", "Ristorante"],
      "phone": "",
      "notes": "",
      "price": "€€"
    },
    {
      "id": "57",
      "name": "NemBeer Pub",
      "city": "Nembro",
      "address": "Via Case Sparse Europa, 15, 24027 Nembro BG",
      "lat": "45.7521670",
      "lng": "9.7816273",
      "typology": ["Ristorante", "Pizzeria"],
      "phone": "",
      "notes": "Pub",
      "price": "€€€",
      "menu": "https://www.leggimenu.it/menu/nembeerpub"
    },
    {
      "id": "58",
      "name": "Nagoya X Sushi",
      "city": "Curno",
      "address": "Via Enrico Fermi, 46, 24035 Curno BG",
      "lat": "45.6891647",
      "lng": "9.6226301",
      "typology": ["⭐️", "Sushi"],
      "phone": "340-5527360",
      "notes": "",
      "price": "€€€€"
    },
    {
      "id": "59",
      "name": "GiustoCosì",
      "city": "Treviglio",
      "address": "Via Roma, 10, 24047 Treviglio BG",
      "lat": "45.5222141",
      "lng": "9.5937482",
      "typology": ["⭐️", "Ristorante"],
      "phone": "0363-323163",
      "notes": "Ristorante di HumanSafari, Costosetto ma molto buono",
      "price": "€€€€€",
      "menu": "https://beacons.ai/giustocosi"
    },
    {
      "id": "60",
      "name": "La Talpa",
      "city": "Pergine",
      "address": "Ponte regio località Fratte 29, 38057 Pergine Valsugana TN",
      "lat": "46.0698603",
      "lng": "11.2211878",
      "typology": ["Pizzeria"],
      "phone": "0461-1830316",
      "notes": "",
      "price": "€€€€",
      "menu": "https://latalpapizzeria.it/wp-content/uploads/2025/02/Menu_Pergine.pdf"
    },
    {
      "id": "61",
      "name": "La Talpa",
      "city": "Trento",
      "address": "Corso del Lavoro e della Scienza, 6/8, 38122 Trento TN",
      "lat": "46.0622550",
      "lng": "11.1147785",
      "typology": ["Pizzeria"],
      "phone": "351-3455834",
      "notes": "",
      "price": "€€€€",
      "menu": "https://pizzerialatalpa.it/wp-content/uploads/2025/01/00_MENU_LA-TALPA_ESECUTIVO-4_removed.pdf"
    },
    {
      "id": "61",
      "name": "La Talpa",
      "city": "Miola di Piné",
      "address": "Via della Crós, 7, 38042 Baselga di Piné TN",
      "lat": "46.1271747",
      "lng": "11.2496804",
      "typology": ["Pizzeria"],
      "phone": "0461-557202",
      "notes": "",
      "price": "€€€€",
      "menu": "https://pizzerialatalpa.it/wp-content/uploads/2024/09/Talpa_Menu_Aprile2023.pdf"
    }
  ]
}
