{
  "places": [
    {
      "id": 1,
      "name": "Roma",
      "city": "Aldeno",
      "address": "Via Roma, 8, 38060 Aldeno TN",
      "lat": "45.977669",
      "lng": "11.091398",
      "typology": ["Indiano", "Ristorante", "Pizzeria"],
      "phone": "",
      "notes": ""
    },
    {
      "id": 2,
      "name": "Al Passetto",
      "city": "Cortina D'Ampezzo",
      "address": "Via Guglielmo Marconi, 8, 32043 Cortina d'Ampezzo BL",
      "lat": "46.539348",
      "lng": "12.137056",
      "typology": ["Ristorante", "Pizzeria"],
      "phone": "",
      "notes": "Cucina tipica"
    },
    {
      "id": 3,
      "name": "Ciasa Lorenzi",
      "city": "Cortina D'Ampezzo",
      "address": "Via Cantore, 1, 32043 Cortina d'Ampezzo BL",
      "lat": "46.540345",
      "lng": "12.136343",
      "typology": ["Ristorante"],
      "phone": "",
      "notes": "Figo ma €€"
    },
    {
      "id": 4,
      "name": "Il Dopolavoro",
      "city": "Gardolo",
      "address": "Via delle Scuole, 1, 38121 Trento TN",
      "lat": "46.108275",
      "lng": "11.11026",
      "typology": ["Ristorante", "Pizzeria"],
      "phone": "",
      "notes": ""
    },
    {
      "id": 5,
      "name": "4 Stagioni",
      "city": "Lasino",
      "address": "Viale S. Pietro, 7a, 38076 Lasino TN",
      "lat": "46.025019",
      "lng": "10.981321",
      "typology": ["Pizzeria", "Ristorante"],
      "phone": "",
      "notes": ""
    },
    {
      "id": 6,
      "name": "Vecchia Pergine",
      "city": "Pergine",
      "address": "Via Maier Contrada Taliana, 69, 38057 Pergine Valsugana TN",
      "lat": "46.058407",
      "lng": "11.240049",
      "typology": ["Pizzeria", "Ristorante"],
      "phone": "",
      "notes": ""
    },
    {
      "id": 7,
      "name": "Terra Rossa",
      "city": "Pergine",
      "address": "Via Santo Rio, 7, 38057 Susà TN",
      "lat": "46.050937",
      "lng": "11.222419",
      "typology": ["Pizzeria"],
      "phone": "0461-530996",
      "notes": ""
    },
    {
      "id": 8,
      "name": "Sushiko",
      "city": "Riva del Garda",
      "address": "Via Padova, 5, 38066 Riva del Garda TN",
      "lat": "45.883109",
      "lng": "10.854207",
      "typology": ["Sushi"],
      "phone": "",
      "notes": ""
    },
    {
      "id": 9,
      "name": "Suyoshi",
      "city": "Rovereto",
      "address": "Via del Garda, 44/o, 38068 Rovereto TN",
      "lat": "45.872842",
      "lng": "11.030726",
      "typology": ["Sushi"],
      "phone": "",
      "notes": ""
    },
    {
      "id": 10,
      "name": "Al Convento",
      "city": "Sarche",
      "address": "Via Toblino, 13, 38096 Vallelaghi TN",
      "lat": "46.048163",
      "lng": "10.954036",
      "typology": ["Indiano", "Pizzeria", "Ristorante"],
      "phone": "",
      "notes": ""
    },
    {
      "id": 11,
      "name": "La Vecchia Cantina",
      "city": "Terlago",
      "address": "Via Villa Alta, 14, 38096 Vallelaghi TN",
      "lat": "46.098243",
      "lng": "11.0184",
      "typology": ["Pizzeria", "Ristorante"],
      "phone": "",
      "notes": ""
    },
    {
      "id": 12,
      "name": "Fujiyama",
      "city": "Trento",
      "address": "Corso 3 Novembre 1918, 29, 38122 Trento TN",
      "lat": "46.0614959",
      "lng": "11.1246535",
      "typology": ["Sushi"],
      "phone": "347-2641954",
      "notes": ""
    },
    {
      "id": 13,
      "name": "Ca dei Gobj",
      "city": "Trento",
      "address": "Via del Simonino, 14, 38122 Trento TN",
      "lat": "46.068535",
      "lng": "11.123725",
      "typology": ["Ristorante"],
      "phone": "",
      "notes": "Cucina tipica"
    },
    {
      "id": 14,
      "name": "La Roccia",
      "city": "Trento",
      "address": "Localita, Via Pianizza, 4, 38123 Villazzano TN",
      "lat": "46.017006",
      "lng": "11.144694",
      "typology": ["Pizzeria", "Ristorante"],
      "phone": "0461-390226",
      "notes": "Bella vista"
    },
    {
      "id": 15,
      "name": "Tentazioni",
      "city": "Trento",
      "address": "Via di Stella di Man, 45, 38123 Trento TN",
      "lat": "46.036521",
      "lng": "11.129514",
      "typology": ["Pizzeria", "Ristorante"],
      "phone": "",
      "notes": ""
    },
    {
      "id": 16,
      "name": "Pedavena",
      "city": "Trento",
      "address": "Via Santa Croce, 15, 38122 Trento TN",
      "lat": "46.064708",
      "lng": "11.123408",
      "typology": ["Pizzeria", "Ristorante"],
      "phone": "",
      "notes": "Cucina tipica"
    },
    {
      "id": 17,
      "name": "Sushiko",
      "city": "Trento",
      "address": "Corso 3 Novembre 1918, 57, 38122 Trento TN",
      "lat": "46.060611",
      "lng": "11.125719",
      "typology": ["Sushi"],
      "phone": "",
      "notes": ""
    },
    {
      "id": 18,
      "name": "La Piadineria",
      "city": "Trento",
      "address": "Viale della Costituzione, 5, 38122 Trento TN",
      "lat": "46.061801",
      "lng": "11.11456",
      "typology": ["Piadine"],
      "phone": "",
      "notes": ""
    },
    {
      "id": 19,
      "name": "Capatoast",
      "city": "Trento",
      "address": "Via Santa Croce, 42, 38122 Trento TN",
      "lat": "46.064073",
      "lng": "11.123332",
      "typology": ["Panini"],
      "phone": "",
      "notes": ""
    },
    {
      "id": 20,
      "name": "Ravioleria Zhang",
      "city": "Trento",
      "address": "Via Carlo Dordi, 38, 38122 Trento TN",
      "lat": "46.067264",
      "lng": "11.123128",
      "typology": ["Cinese"],
      "phone": "",
      "notes": "Ravioli"
    },
    {
      "id": 21,
      "name": "Para Todos",
      "city": "Trento",
      "address": "Via Torre Verde, 62, 38122 Trento TN",
      "lat": "46.071528",
      "lng": "11.124643",
      "typology": ["Messicano"],
      "phone": "",
      "notes": ""
    },
    {
      "id": 22,
      "name": "Patelli",
      "city": "Trento",
      "address": "Via Dietro le Mura A, 1/5, 38122 Trento TN",
      "lat": "46.065373",
      "lng": "11.12395",
      "typology": ["Ristorante"],
      "phone": "",
      "notes": ""
    },
    {
      "id": 23,
      "name": "Milli Eat&Drink",
      "city": "Trento",
      "address": "Via del Suffragio, 2, 38121 Trento TN",
      "lat": "46.071873",
      "lng": "11.124915",
      "typology": ["Pizzeria", "Ristorante"],
      "phone": "388-3440317",
      "notes": ""
    },
    {
      "id": 24,
      "name": "Dalla Sora Giovanna",
      "city": "Trento",
      "address": "Via della Roggia Grande, 8, 38122 Trento TN",
      "lat": "46.067405",
      "lng": "11.124386",
      "typology": ["Ristorante"],
      "phone": "",
      "notes": "Piatti romani"
    },
    {
      "id": 25,
      "name": "Al Maso",
      "city": "Val di Non",
      "address": "Via Sporeggio, 24, 38010 Maso Milano TN",
      "lat": "46.236836",
      "lng": "11.052502",
      "typology": ["Ristorante"],
      "phone": "",
      "notes": "Carne \u20ac\u20ac"
    },
    {
      "id": 26,
      "name": "Panorama",
      "city": "Val di Non",
      "address": "Via Roma, 60, 38012 Taio TN",
      "lat": "46.317167",
      "lng": "11.068741",
      "typology": ["Indiano", "Pizzeria"],
      "phone": "",
      "notes": ""
    },
    {
      "id": 27,
      "name": "Re Teodorico",
      "city": "Verona",
      "address": "Piazzale Castel S. Pietro, 1, 37121 Verona VR",
      "lat": "45.448416",
      "lng": "11.002226",
      "typology": ["Ristorante"],
      "phone": "",
      "notes": "Bella vista"
    },
    {
      "id": 28,
      "name": "Helmhotel",
      "city": "Versciaco",
      "address": "Bozner Str., 2, 39038 Obervierschach, Autonome Provinz Bozen - S\u00fcdtirol",
      "lat": "46.730172",
      "lng": "12.321836",
      "typology": ["Ristorante", "Pizzeria"],
      "phone": "",
      "notes": "Cucina Tipica (Prezzi Giusti)"
    }
  ]
}
